<?xml version="1.0"?>
<PARKING>
    <carto>
        <markers>
            <marker name="00027 - NANCY THERMAL (CB)" number="27" address="Rue du Sergent Blandan" lat="48.6794397" lng="6.1674761"/>
            <marker name="00028 - MARCH&#xC9; D'HAUSSONVILLE" number="28" address="Boulevard d'Haussonville" lat="48.67227619793021" lng="6.165710709115886"/>
            <marker name="00029 - VELODROME (CB)" number="29" address="Place du V&#xE9;lodrome" lat="48.666721193896" lng="6.16661978303466"/>
            <marker name="00026 - BAUDRICOURT HAUSSONVILLE" number="26" address="Rue des 3 Epis Baudricourt" lat="48.675248491826174" lng="6.162844844269929"/>
            <marker name="00032 - MEDREVILLE (CB)" number="32" address="en face du 1 Boulevard Charlemagne Nancy" lat="48.685497" lng="6.161015"/>
            <marker name="00033 - LAXOU MAIRIE (CB)" number="33" address="9 rue Paul D&#xE9;roul&#xE8;de" lat="48.684954" lng="6.154908"/>
            <marker name="00034 - MALZEVILLE (CB)" number="34" address="Square Waldstetten  en face du 6 rue Maurice Barr&#xE8;s MALZEVILLE" lat="48.707187" lng="6.185524"/>
            <marker name="00031 - ARTEM (CB)" number="31" address="en face du 119 rue du Sergent Blandan" lat="48.674665" lng="6.170655"/>
            <marker name="00030 - NATIONS (CB)" number="30" address="au milieu du boulevard des Nations &#xA0;&#xE0; Vandoeuvre dans le prolongement de l&#x2019;arr&#xEA;t de bus Nations devant le centre commercial" lat="48.662356" lng="6.173442"/>
            <marker name="00014 - FAC DE LETTRES (CB)" number="14" address="Place Godefroy de Bouillon" lat="48.6928180794454" lng="6.16860978784457"/>
            <marker name="00020 - PLACE DES VOSGES" number="20" address="Angle avenue du G&#xE9;n&#xE9;ral Leclerc et rue du Mar&#xE9;chal De Lattre de Tassigny" lat="48.684781" lng="6.187631"/>
            <marker name="00025 - PLACE COMMANDERIE" number="25" address="Place de la Commanderie - Face au n&#xB0;13" lat="48.6859179816784" lng="6.1674218161464"/>
            <marker name="00013 - SAINT NICOLAS - CHARLES III" number="13" address="71 rue Saint-Nicolas" lat="48.688015" lng="6.187451"/>
            <marker name="00004 - MARCHE CENTRAL (CB)" number="4" address="Angle rue Saint-Dizier - Rue du Dr SCHMITT" lat="48.6891733257851" lng="6.18390463043762"/>
            <marker name="00018 - GARE SAINT LEON (CB)" number="18" address="Angle rue Saint-L&#xE9;on - Esplanade Saint-L&#xE9;on" lat="48.689560111075" lng="6.17251545229862"/>
            <marker name="00015 - PORT STE CATHERINE" number="15" address="Angle rue Henri BAZIN et quai Sainte-Catherine" lat="48.6954870039528" lng="6.1906794896667"/>
            <marker name="00017 - CONSERVATOIRE - MANUFACTURE" number="17" address="27 rue Baron Louis - Angle quai Claude le Lorrain" lat="48.6957176856775" lng="6.17133838702303"/>
            <marker name="00005 - PLACE COLONEL DRIANT (CB)" number="5" address="Rue Drouin - Face au n&#xB0;2" lat="48.6921301" lng="6.1872695"/>
            <marker name="00024 - 3 MAISONS - CHARLES V (CB)" number="24" address="rue du faubourg des 3 Maisons - Angle boulevard Charles V" lat="48.701365" lng="6.176824"/>
            <marker name="00006 - LES 2 RIVES (CB)" number="6" address="2 rue Emilie du Ch&#xE2;telet" lat="48.695420147586" lng="6.19522861327582"/>
            <marker name="00009 - PLACE BARROIS (CB)" number="9" address="Place Barrois" lat="48.69950232851108" lng="6.204735639873545"/>
            <marker name="00007 - PLACE ST EPVRE  (CB)" number="7" address="Place du Colonel Fabien" lat="48.6952351" lng="6.1798109"/>
            <marker name="00023 - PROMENADE DES CANAUX" number="23" address="Promenade des Canaux" lat="48.6927939742599" lng="6.19628435757015"/>
            <marker name="00012 - ST SEBASTIEN - ST THIEBAUT (CB)" number="12" address="Angle rue Saint-Thiebaut et rue du Grand Rabbin HAGUENAUER" lat="48.6886141256403" lng="6.17950010441818"/>
            <marker name="00021 - HOPITAL CENTRAL (CB)" number="21" address="45 avenue du Mar&#xE9;chal de Lattre de Tassigny" lat="48.6833502130976" lng="6.19029660801914"/>
            <marker name="00019 - COMMANDERIE - CHALNOT" number="19" address="Angle rue Pierre CHALNOT et rue de la Commanderie" lat="48.6869197241039" lng="6.17234789239391"/>
            <marker name="00016 - PORTE DE LA CRAFFE (CB)" number="16" address="Angle rue du Haut Bourgeois et place des Bourgets" lat="48.6984724451821" lng="6.17798553705909"/>
            <marker name="00001 - DOMINICAINS - FOURRIER (CB)" number="1" address="Angle rue Pierre FOURRIER et rue des Dominicains" lat="48.6924654452072" lng="6.18340055389445"/>
            <marker name="00011 - MAZAGRAN - FOCH (CB)" number="11" address="Boulevard Foch" lat="48.6894760345252" lng="6.17650546239553"/>
            <marker name="00022 - HOPITAL ST JULIEN" number="22" address="Angle rue Molitor et rue Foller" lat="48.6858574026886" lng="6.19290171469907"/>
            <marker name="00003 - PLACE DE DOMBASLE (CB)" number="3" address="Rue Stanislas - Face au n&#xB0;68" lat="48.6919579483934" lng="6.17851021950761"/>
            <marker name="00008 - COURS LEOPOLD - SAINT MICHEL (CB)" number="8" address="Angle rue Saint-Michel et cours L&#xE9;opold" lat="48.6956140662607" lng="6.17676840786255"/>
            <marker name="00002 - PLACE DE LA CARRIERE (CB)" number="2" address="Angle Place de la Carri&#xE8;re et rue des Mar&#xE9;chaux" lat="48.6945981637388" lng="6.18229408637817"/>
            <marker name="00010 - GARE THIERS (CB)" number="10" address="Rue Mazagran" lat="48.69037" lng="6.175677"/>
        </markers>
        <stations>
            <station ID="1">
                <available>8</available>
                <free>20</free>
                <total>28</total>
            </station>
            <station ID="2">
                <available>2</available>
                <free>14</free>
                <total>16</total>
            </station>
            <station ID="3">
                <available>21</available>
                <free>7</free>
                <total>28</total>
            </station>
            <station ID="4">
                <available>3</available>
                <free>15</free>
                <total>18</total>
            </station>
            <station ID="5">
                <available>3</available>
                <free>13</free>
                <total>16</total>
            </station>
            <station ID="6">
                <available>4</available>
                <free>12</free>
                <total>16</total>
            </station>
            <station ID="7">
                <available>8</available>
                <free>12</free>
                <total>20</total>
            </station>
            <station ID="8">
                <available>5</available>
                <free>13</free>
                <total>18</total>
            </station>
            <station ID="9">
                <available>5</available>
                <free>12</free>
                <total>17</total>
            </station>
            <station ID="10">
                <available>17</available>
                <free>13</free>
                <total>30</total>
            </station>
            <station ID="11">
                <available>19</available>
                <free>9</free>
                <total>28</total>
            </station>
            <station ID="12">
                <available>6</available>
                <free>16</free>
                <total>22</total>
            </station>
            <station ID="13">
                <available>4</available>
                <free>12</free>
                <total>16</total>
            </station>
            <station ID="14">
                <available>3</available>
                <free>16</free>
                <total>19</total>
            </station>
            <station ID="15">
                <available>6</available>
                <free>10</free>
                <total>16</total>
            </station>
            <station ID="16">
                <available>2</available>
                <free>18</free>
                <total>20</total>
            </station>
            <station ID="17">
                <available>7</available>
                <free>8</free>
                <total>15</total>
            </station>
            <station ID="18">
                <available>12</available>
                <free>8</free>
                <total>20</total>
            </station>
            <station ID="19">
                <available>11</available>
                <free>7</free>
                <total>18</total>
            </station>
            <station ID="20">
                <available>4</available>
                <free>11</free>
                <total>15</total>
            </station>
            <station ID="21">
                <available>12</available>
                <free>8</free>
                <total>20</total>
            </station>
            <station ID="22">
                <available>5</available>
                <free>11</free>
                <total>16</total>
            </station>
            <station ID="23">
                <available>4</available>
                <free>12</free>
                <total>16</total>
            </station>
            <station ID="24">
                <available>7</available>
                <free>16</free>
                <total>23</total>
            </station>
            <station ID="25">
                <available>14</available>
                <free>4</free>
                <total>18</total>
            </station>
            <station ID="26">
                <available>10</available>
                <free>5</free>
                <total>15</total>
            </station>
            <station ID="27">
                <available>9</available>
                <free>9</free>
                <total>18</total>
            </station>
            <station ID="28">
                <available>10</available>
                <free>5</free>
                <total>15</total>
            </station>
            <station ID="29">
                <available>18</available>
                <free>6</free>
                <total>24</total>
            </station>
            <station ID="30">
                <available>7</available>
                <free>8</free>
                <total>15</total>
            </station>
            <station ID="31">
                <available>4</available>
                <free>11</free>
                <total>15</total>
            </station>
            <station ID="32">
                <available>7</available>
                <free>8</free>
                <total>15</total>
            </station>
            <station ID="33">
                <available>5</available>
                <free>10</free>
                <total>15</total>
            </station>
            <station ID="34">
                <available>4</available>
                <free>11</free>
                <total>15</total>
            </station>
        </stations>
    </carto>
</PARKING>
